[
  {
  "id": "enchanted-circle-brewing-company-angel-fire",
  "name": "Enchanted Circle Brewing Company",
  "brewery_type": "brewpub",
  "street": "20 Sage Ln.",
  "address_2": null,
  "address_3": null,
  "city": "Angel Fire",
  "state": "New Mexico",
  "county_province": null,
  "postal_code": "87710",
  "country": "United States",
  "longitude": "-105.2882775",
  "latitude": "36.396276",
  "phone": "5055078687",
  "website_url": null,
  "updated_at": "2023-02-21T01:41:59.300Z",
  "created_at": "2023-02-21T01:41:59.300Z"
  },
  {
  "id": "bla-dragonfly-brewing-cimarron",
  "name": "BlÃ¼ Dragonfly Brewing",
  "brewery_type": "brewpub",
  "street": "301 E 9th St # C",
  "address_2": null,
  "address_3": null,
  "city": "Cimarron",
  "state": "New Mexico",
  "county_province": null,
  "postal_code": "87714-4027",
  "country": "United States",
  "longitude": "-104.914428",
  "latitude": "36.511427",
  "phone": "9186361095",
  "website_url": null,
  "updated_at": "2023-02-21T01:41:59.300Z",
  "created_at": "2023-02-21T01:41:59.300Z"
  },
  {
  "id": "eskes-brew-pub-taos",
  "name": "Eskes Brew Pub",
  "brewery_type": "brewpub",
  "street": "106 Des Georges Pl",
  "address_2": null,
  "address_3": null,
  "city": "Taos",
  "state": "New Mexico",
  "county_province": null,
  "postal_code": "87571-6179",
  "country": "United States",
  "longitude": "-105.5731656",
  "latitude": "36.4058929",
  "phone": "5757581517",
  "website_url": "http://www.eskesbrewpub.com",
  "updated_at": "2023-02-21T01:41:59.300Z",
  "created_at": "2023-02-21T01:41:59.300Z"
  },
  {
  "id": "taos-ale-house-taos",
  "name": "Taos Ale House",
  "brewery_type": "brewpub",
  "street": "401 Paseo del Pueblo Norte",
  "address_2": null,
  "address_3": null,
  "city": "Taos",
  "state": "New Mexico",
  "county_province": null,
  "postal_code": "87571-5907",
  "country": "United States",
  "longitude": "-105.568722",
  "latitude": "36.41222",
  "phone": "5757585522",
  "website_url": "http://www.taosalehouse.com",
  "updated_at": "2023-02-21T01:41:59.300Z",
  "created_at": "2023-02-21T01:41:59.300Z"
  },
  {
  "id": "chili-line-brewing-co-santa-fe",
  "name": "Chili Line Brewing Co.",
  "brewery_type": "brewpub",
  "street": "204 N. Guadalupe St.",
  "address_2": null,
  "address_3": null,
  "city": "Santa Fe",
  "state": "New Mexico",
  "county_province": null,
  "postal_code": "87501-1827",
  "country": "United States",
  "longitude": "-105.9435314",
  "latitude": "35.68947555",
  "phone": "5055007903",
  "website_url": "http://www.chililinebrewery@gmail.com",
  "updated_at": "2023-02-21T01:41:59.300Z",
  "created_at": "2023-02-21T01:41:59.300Z"
  },
  {
  "id": "abbey-brewing-company-llc-santa-fe",
  "name": "Abbey Brewing Company, LLC",
  "brewery_type": "micro",
  "street": "215 W. Alicante Rd",
  "address_2": null,
  "address_3": null,
  "city": "Santa Fe",
  "state": "New Mexico",
  "county_province": null,
  "postal_code": "87505",
  "country": "United States",
  "longitude": "-105.9465207",
  "latitude": "35.66555826",
  "phone": "5056706802",
  "website_url": "http://www.abbeybrewing.biz",
  "updated_at": "2023-02-21T01:41:59.300Z",
  "created_at": "2023-02-21T01:41:59.300Z"
  },
  {
  "id": "second-street-brewery-santa-fe",
  "name": "Second Street Brewery",
  "brewery_type": "brewpub",
  "street": "1814 2nd St",
  "address_2": null,
  "address_3": null,
  "city": "Santa Fe",
  "state": "New Mexico",
  "county_province": null,
  "postal_code": "87505-3848",
  "country": "United States",
  "longitude": "-105.9656754",
  "latitude": "35.66300492",
  "phone": "5059823030",
  "website_url": "http://www.secondstreetbrewery.com",
  "updated_at": "2023-02-21T01:41:59.300Z",
  "created_at": "2023-02-21T01:41:59.300Z"
  },
  {
  "id": "rowley-farmhouse-ales-santa-fe",
  "name": "Rowley Farmhouse Ales",
  "brewery_type": "brewpub",
  "street": "1405 MacLovia St",
  "address_2": null,
  "address_3": null,
  "city": "Santa Fe",
  "state": "New Mexico",
  "county_province": null,
  "postal_code": "87505-3244",
  "country": "United States",
  "longitude": "-105.9836551",
  "latitude": "35.66076999",
  "phone": "5054280719",
  "website_url": "http://rowleyfarmhouse.com",
  "updated_at": "2023-02-21T01:41:59.300Z",
  "created_at": "2023-02-21T01:41:59.300Z"
  },
  {
  "id": "second-street-brewery-rufina-santa-fe",
  "name": "Second Street Brewery - Rufina",
  "brewery_type": "brewpub",
  "street": "2920 Rufina St",
  "address_2": null,
  "address_3": null,
  "city": "Santa Fe",
  "state": "New Mexico",
  "county_province": null,
  "postal_code": "87507-2999",
  "country": "United States",
  "longitude": "-105.9909993",
  "latitude": "35.65875738",
  "phone": "5059823030",
  "website_url": "http://www.secondstreetbreweryrufina.com",
  "updated_at": "2023-02-21T01:41:59.300Z",
  "created_at": "2023-02-21T01:41:59.300Z"
  },
  {
  "id": "santa-fe-brewing-co-santa-fe",
  "name": "Santa Fe Brewing Co",
  "brewery_type": "regional",
  "street": "35 Fire Place",
  "address_2": null,
  "address_3": null,
  "city": "Santa Fe",
  "state": "New Mexico",
  "county_province": null,
  "postal_code": "87508-4493",
  "country": "United States",
  "longitude": "-106.0515883",
  "latitude": "35.59654205",
  "phone": "5054243333",
  "website_url": "http://www.santafebrewing.com",
  "updated_at": "2023-02-21T01:41:59.300Z",
  "created_at": "2023-02-21T01:41:59.300Z"
  }
  ]